{
"type": "FeatureCollection",
"name": "map",
"features": [
{ "type": "Feature", "properties": { "name": "Butrint", "altLabel": "Butrinti, Butrinto, Βουθρωτός, Bouthrotos, Bouthrotós, Buthrotum, Vuthroto", "id": 1 }, "geometry": { "type": "Point", "coordinates": [ 20.021199991303941, 39.745799250980319 ] } },
{ "type": "Feature", "properties": { "name": "Çuka e Ajtoit", "altLabel": "Cestria, Monte Aetòs, Monte Aetos, Cestrine", "id": 2 }, "geometry": { "type": "Point", "coordinates": [ 20.12361921335895, 39.681466609028035 ] } },
{ "type": "Feature", "properties": { "name": "Phoinike", "altLabel": "Foinike,  Fenice,  Phoenice,  Finiq, Finiqi", "id": 3 }, "geometry": { "type": "Point", "coordinates": [ 20.05848758388035, 39.913126796055622 ] } },
{ "type": "Feature", "properties": { "name": "Malathrea", "altLabel": "Malathre, Amaltheion", "id": 4 }, "geometry": { "type": "Point", "coordinates": [ 20.10500114635521, 39.698738934154768 ] } },
{ "type": "Feature", "properties": { "name": "Saranda", "altLabel": "Onchesmos, Anchiasmos, Ankiasmi, Onhesmi, Santi Quaranta, Porto Edda", "id": 5 }, "geometry": { "type": "Point", "coordinates": [ 20.007668385144491, 39.875003963760321 ] } },
{ "type": "Feature", "properties": { "name": "Grammata", "altLabel": "Gramata", "id": 6 }, "geometry": { "type": "Point", "coordinates": [ 20.101685, 39.710401 ] } },
{ "type": "Feature", "properties": { "name": "Grammeno", "id": 7 }, "geometry": { "type": "Point", "coordinates": [ 20.101685, 39.710401 ] } },
{ "type": "Feature", "properties": { "name": "Acheron", "id": 8 }, "geometry": { "type": "Point", "coordinates": [ 20.1, 39.7 ] } },
{ "type": "Feature", "properties": { "name": "Actium", "id": 9 }, "geometry": { "type": "Point", "coordinates": [ 20.11, 39.7 ] } },
{ "type": "Feature", "properties": { "name": "Adriatic Sea", "id": 10 }, "geometry": { "type": "Point", "coordinates": [ 20.12, 39.7 ] } },
{ "type": "Feature", "properties": { "name": "Aegean Sea", "id": 11 }, "geometry": { "type": "Point", "coordinates": [ 20.13, 39.7 ] } },
{ "type": "Feature", "properties": { "name": "Agia Marina", "id": 12 }, "geometry": { "type": "Point", "coordinates": [ 20.14, 39.7 ] } },
{ "type": "Feature", "properties": { "name": "Agios Donatos", "id": 13 }, "geometry": { "type": "Point", "coordinates": [ 20.15, 39.7 ] } },
{ "type": "Feature", "properties": { "name": "Albania", "id": 14 }, "geometry": { "type": "Point", "coordinates": [ 20.16, 39.7 ] } },
{ "type": "Feature", "properties": { "name": "Amantia", "id": 15 }, "geometry": { "type": "Point", "coordinates": [ 20.17, 39.7 ] } },
{ "type": "Feature", "properties": { "name": "Ambracia", "id": 16 }, "geometry": { "type": "Point", "coordinates": [ 20.18, 39.7 ] } },
{ "type": "Feature", "properties": { "name": "Ammotopos", "id": 17 }, "geometry": { "type": "Point", "coordinates": [ 20.19, 39.7 ] } },
{ "type": "Feature", "properties": { "name": "Ano Parakalamos", "id": 18 }, "geometry": { "type": "Point", "coordinates": [ 20.2, 39.7 ] } },
{ "type": "Feature", "properties": { "name": "Anthochori", "id": 19 }, "geometry": { "type": "Point", "coordinates": [ 20.21, 39.7 ] } },
{ "type": "Feature", "properties": { "name": "Antigonea", "id": 20 }, "geometry": { "type": "Point", "coordinates": [ 20.2192091, 40.0876047 ] } },
{ "type": "Feature", "properties": { "name": "Apollonia", "altLabel": "Apolonia, Ἀπολλωνία, Pojan", "id": 21 }, "geometry": { "type": "Point", "coordinates": [ 19.4690394, 40.7209596 ] } },
{ "type": "Feature", "properties": { "name": "Athens", "id": 22 }, "geometry": { "type": "Point", "coordinates": [ 23.5826224, 37.9907346 ] } },
{ "type": "Feature", "properties": { "name": "Attica", "id": 23 }, "geometry": { "type": "Point", "coordinates": [ 20.25, 39.7 ] } },
{ "type": "Feature", "properties": { "name": "Aulon", "id": 24 }, "geometry": { "type": "Point", "coordinates": [ 20.26, 39.7 ] } },
{ "type": "Feature", "properties": { "name": "Bajkaj", "id": 25 }, "geometry": { "type": "Point", "coordinates": [ 20.27, 39.7 ] } },
{ "type": "Feature", "properties": { "name": "Ballëz", "id": 26 }, "geometry": { "type": "Point", "coordinates": [ 20.28, 39.7 ] } },
{ "type": "Feature", "properties": { "name": "Barç", "id": 27 }, "geometry": { "type": "Point", "coordinates": [ 20.29, 39.7 ] } },
{ "type": "Feature", "properties": { "name": "Belibardha", "id": 28 }, "geometry": { "type": "Point", "coordinates": [ 20.3, 39.7 ] } },
{ "type": "Feature", "properties": { "name": "Belsh", "id": 29 }, "geometry": { "type": "Point", "coordinates": [ 20.11, 39.71 ] } },
{ "type": "Feature", "properties": { "name": "Berat", "id": 30 }, "geometry": { "type": "Point", "coordinates": [ 20.12, 39.71 ] } },
{ "type": "Feature", "properties": { "name": "Boeotia", "id": 31 }, "geometry": { "type": "Point", "coordinates": [ 20.13, 39.71 ] } },
{ "type": "Feature", "properties": { "name": "Borsh", "id": 32 }, "geometry": { "type": "Point", "coordinates": [ 20.14, 39.71 ] } },
{ "type": "Feature", "properties": { "name": "Bregu i Kullës", "id": 33 }, "geometry": { "type": "Point", "coordinates": [ 20.15, 39.71 ] } },
{ "type": "Feature", "properties": { "name": "Bregu i Sterrës", "id": 34 }, "geometry": { "type": "Point", "coordinates": [ 20.16, 39.71 ] } },
{ "type": "Feature", "properties": { "name": "Brinja e Shelgjit", "id": 35 }, "geometry": { "type": "Point", "coordinates": [ 20.17, 39.71 ] } },
{ "type": "Feature", "properties": { "name": "Bushat", "id": 36 }, "geometry": { "type": "Point", "coordinates": [ 20.18, 39.71 ] } },
{ "type": "Feature", "properties": { "name": "Byllis", "id": 37 }, "geometry": { "type": "Point", "coordinates": [ 20.2, 39.71 ] } },
{ "type": "Feature", "properties": { "name": "Dimal", "id": 38 }, "geometry": { "type": "Point", "coordinates": [ 20.21, 39.71 ] } },
{ "type": "Feature", "properties": { "name": "Votonosi", "id": 39 }, "geometry": { "type": "Point", "coordinates": [ 20.22, 39.71 ] } },
{ "type": "Feature", "properties": { "name": "Peloponnese", "id": 40 }, "geometry": { "type": "Point", "coordinates": [ 20.23, 39.71 ] } },
{ "type": "Feature", "properties": { "name": "Peshkëpi e Sipërme", "id": 41 }, "geometry": { "type": "Point", "coordinates": [ 20.24, 39.71 ] } },
{ "type": "Feature", "properties": { "name": "Sarda", "id": 42 }, "geometry": { "type": "Point", "coordinates": [ 20.25, 39.71 ] } },
{ "type": "Feature", "properties": { "name": "Labova e Kryqit", "id": 43 }, "geometry": { "type": "Point", "coordinates": [ 20.26, 39.71 ] } },
{ "type": "Feature", "properties": { "name": "Dema (Attica)", "id": 44 }, "geometry": { "type": "Point", "coordinates": [ 20.27, 39.71 ] } },
{ "type": "Feature", "properties": { "name": "Corinth", "id": 45 }, "geometry": { "type": "Point", "coordinates": [ 20.28, 39.71 ] } },
{ "type": "Feature", "properties": { "name": "Siphnos", "id": 46 }, "geometry": { "type": "Point", "coordinates": [ 20.29, 39.71 ] } },
{ "type": "Feature", "properties": { "name": "Leprovouni", "id": 47 }, "geometry": { "type": "Point", "coordinates": [ 20.3, 39.71 ] } },
{ "type": "Feature", "properties": { "name": "Koudounotrypa", "id": 48 }, "geometry": { "type": "Point", "coordinates": [ 20.1, 39.72 ] } },
{ "type": "Feature", "properties": { "name": "Pesta", "id": 49 }, "geometry": { "type": "Point", "coordinates": [ 20.11, 39.72 ] } },
{ "type": "Feature", "properties": { "name": "Matohasanaj", "id": 50 }, "geometry": { "type": "Point", "coordinates": [ 20.12, 39.72 ] } },
{ "type": "Feature", "properties": { "name": "Thessaly", "id": 51 }, "geometry": { "type": "Point", "coordinates": [ 20.13, 39.72 ] } },
{ "type": "Feature", "properties": { "name": "Castro", "id": 52 }, "geometry": { "type": "Point", "coordinates": [ 20.14, 39.72 ] } },
{ "type": "Feature", "properties": { "name": "Lofkënd", "id": 53 }, "geometry": { "type": "Point", "coordinates": [ 20.15, 39.72 ] } },
{ "type": "Feature", "properties": { "name": "Chaonia", "id": 54 }, "geometry": { "type": "Point", "coordinates": [ 20.16, 39.72 ] } },
{ "type": "Feature", "properties": { "name": "Eleutherai", "id": 55 }, "geometry": { "type": "Point", "coordinates": [ 20.17, 39.72 ] } },
{ "type": "Feature", "properties": { "name": "Mousiotitsa", "id": 56 }, "geometry": { "type": "Point", "coordinates": [ 20.18, 39.72 ] } },
{ "type": "Feature", "properties": { "name": "Kastri Episkopikou", "id": 57 }, "geometry": { "type": "Point", "coordinates": [ 20.19, 39.72 ] } },
{ "type": "Feature", "properties": { "name": "Vrina", "id": 58 }, "geometry": { "type": "Point", "coordinates": [ 20.2, 39.72 ] } },
{ "type": "Feature", "properties": { "name": "Sevasto", "id": 59 }, "geometry": { "type": "Point", "coordinates": [ 20.21, 39.72 ] } },
{ "type": "Feature", "properties": { "name": "Shushica", "id": 60 }, "geometry": { "type": "Point", "coordinates": [ 20.22, 39.72 ] } },
{ "type": "Feature", "properties": { "name": "Rome", "id": 61 }, "geometry": { "type": "Point", "coordinates": [ 20.23, 39.72 ] } },
{ "type": "Feature", "properties": { "name": "Lezha", "id": 62 }, "geometry": { "type": "Point", "coordinates": [ 20.24, 39.72 ] } },
{ "type": "Feature", "properties": { "name": "Ktismata", "id": 63 }, "geometry": { "type": "Point", "coordinates": [ 20.25, 39.72 ] } },
{ "type": "Feature", "properties": { "name": "Ephyra", "id": 64 }, "geometry": { "type": "Point", "coordinates": [ 20.26, 39.72 ] } },
{ "type": "Feature", "properties": { "name": "Taras", "id": 65 }, "geometry": { "type": "Point", "coordinates": [ 20.27, 39.72 ] } },
{ "type": "Feature", "properties": { "name": "Sovjan", "id": 66 }, "geometry": { "type": "Point", "coordinates": [ 20.28, 39.72 ] } },
{ "type": "Feature", "properties": { "name": "Mavrovë (Olympa)", "id": 67 }, "geometry": { "type": "Point", "coordinates": [ 20.29, 39.72 ] } },
{ "type": "Feature", "properties": { "name": "Kalivo", "id": 68 }, "geometry": { "type": "Point", "coordinates": [ 20.041858678429591, 39.751484404522806 ] } },
{ "type": "Feature", "properties": { "name": "Metoqi", "id": 69 }, "geometry": { "type": "Point", "coordinates": [ 20.1, 39.73 ] } },
{ "type": "Feature", "properties": { "name": "Doliani", "id": 70 }, "geometry": { "type": "Point", "coordinates": [ 20.11, 39.73 ] } },
{ "type": "Feature", "properties": { "name": "Nemea", "id": 71 }, "geometry": { "type": "Point", "coordinates": [ 20.12, 39.73 ] } },
{ "type": "Feature", "properties": { "name": "Delos", "id": 72 }, "geometry": { "type": "Point", "coordinates": [ 25.2654497, 37.3988535 ] } },
{ "type": "Feature", "properties": { "name": "Zgërdhesh", "altLabel": "Albanopolis", "id": 73 }, "geometry": { "type": "Point", "coordinates": [ 19.7759777, 41.4760716 ] } },
{ "type": "Feature", "properties": { "name": "Illyria", "id": 74 }, "geometry": { "type": "Point", "coordinates": [ 20.15, 39.73 ] } },
{ "type": "Feature", "properties": { "name": "Psina", "id": 75 }, "geometry": { "type": "Point", "coordinates": [ 20.16, 39.73 ] } },
{ "type": "Feature", "properties": { "name": "Maliq", "id": 76 }, "geometry": { "type": "Point", "coordinates": [ 20.17, 39.73 ] } },
{ "type": "Feature", "properties": { "name": "Matomara", "id": 77 }, "geometry": { "type": "Point", "coordinates": [ 20.18, 39.73 ] } },
{ "type": "Feature", "properties": { "name": "Paramythia", "id": 78 }, "geometry": { "type": "Point", "coordinates": [ 20.19, 39.73 ] } },
{ "type": "Feature", "properties": { "name": "Vagalati", "id": 79 }, "geometry": { "type": "Point", "coordinates": [ 20.1222369, 39.7280115 ] } },
{ "type": "Feature", "properties": { "name": "Megalo Gardiki", "id": 80 }, "geometry": { "type": "Point", "coordinates": [ 20.21, 39.73 ] } },
{ "type": "Feature", "properties": { "name": "Vitsa", "id": 81 }, "geometry": { "type": "Point", "coordinates": [ 20.22, 39.73 ] } },
{ "type": "Feature", "properties": { "name": "Perondi", "id": 82 }, "geometry": { "type": "Point", "coordinates": [ 20.23, 39.73 ] } },
{ "type": "Feature", "properties": { "name": "Dobra", "id": 83 }, "geometry": { "type": "Point", "coordinates": [ 20.1217892, 39.7545112 ] } },
{ "type": "Feature", "properties": { "name": "Marmara Zervochori", "id": 84 }, "geometry": { "type": "Point", "coordinates": [ 20.25, 39.73 ] } },
{ "type": "Feature", "properties": { "name": "Monte Turcisi", "id": 85 }, "geometry": { "type": "Point", "coordinates": [ 20.26, 39.73 ] } },
{ "type": "Feature", "properties": { "name": "Kanina", "id": 86 }, "geometry": { "type": "Point", "coordinates": [ 20.27, 39.73 ] } },
{ "type": "Feature", "properties": { "name": "Greece > Aegean", "id": 87 }, "geometry": { "type": "Point", "coordinates": [ 20.28, 39.73 ] } },
{ "type": "Feature", "properties": { "name": "Sykion", "id": 88 }, "geometry": { "type": "Point", "coordinates": [ 20.29, 39.73 ] } },
{ "type": "Feature", "properties": { "name": "Karaburun", "id": 89 }, "geometry": { "type": "Point", "coordinates": [ 20.3, 39.73 ] } },
{ "type": "Feature", "properties": { "name": "Michalitsi (Aktion)", "id": 90 }, "geometry": { "type": "Point", "coordinates": [ 20.1, 39.74 ] } },
{ "type": "Feature", "properties": { "name": "Samos", "id": 91 }, "geometry": { "type": "Point", "coordinates": [ 20.11, 39.74 ] } },
{ "type": "Feature", "properties": { "name": "Mesopotam", "id": 92 }, "geometry": { "type": "Point", "coordinates": [ 20.12, 39.74 ] } },
{ "type": "Feature", "properties": { "name": "Passaron", "id": 93 }, "geometry": { "type": "Point", "coordinates": [ 20.13, 39.74 ] } },
{ "type": "Feature", "properties": { "name": "Pyrgos Ragiou", "id": 94 }, "geometry": { "type": "Point", "coordinates": [ 20.200700443755874, 39.537601960089908 ] } },
{ "type": "Feature", "properties": { "name": "Russia", "id": 95 }, "geometry": { "type": "Point", "coordinates": [ 20.15, 39.74 ] } },
{ "type": "Feature", "properties": { "name": "Ripës", "id": 96 }, "geometry": { "type": "Point", "coordinates": [ 20.16, 39.74 ] } },
{ "type": "Feature", "properties": { "name": "Thesprotia", "id": 97 }, "geometry": { "type": "Point", "coordinates": [ 20.17, 39.74 ] } },
{ "type": "Feature", "properties": { "name": "Nymphaion", "id": 98 }, "geometry": { "type": "Point", "coordinates": [ 20.18, 39.74 ] } },
{ "type": "Feature", "properties": { "name": "Episkopi Servianon", "id": 99 }, "geometry": { "type": "Point", "coordinates": [ 20.19, 39.74 ] } },
{ "type": "Feature", "properties": { "name": "Syri i kaltër", "id": 100 }, "geometry": { "type": "Point", "coordinates": [ 20.2, 39.74 ] } },
{ "type": "Feature", "properties": { "name": "Vlora", "id": 101 }, "geometry": { "type": "Point", "coordinates": [ 20.21, 39.74 ] } },
{ "type": "Feature", "properties": { "name": "Veio", "id": 102 }, "geometry": { "type": "Point", "coordinates": [ 20.22, 39.74 ] } },
{ "type": "Feature", "properties": { "name": "Hadrianopolis", "id": 103 }, "geometry": { "type": "Point", "coordinates": [ 20.23, 39.74 ] } },
{ "type": "Feature", "properties": { "name": "Civita di Tricarico", "id": 104 }, "geometry": { "type": "Point", "coordinates": [ 20.24, 39.74 ] } },
{ "type": "Feature", "properties": { "name": "Kassope", "id": 105 }, "geometry": { "type": "Point", "coordinates": [ 20.25, 39.74 ] } },
{ "type": "Feature", "properties": { "name": "Dema (Chaonia)", "id": 106 }, "geometry": { "type": "Point", "coordinates": [ 20.26, 39.74 ] } },
{ "type": "Feature", "properties": { "name": "Kalyvoules Perivleptou", "id": 107 }, "geometry": { "type": "Point", "coordinates": [ 20.27, 39.74 ] } },
{ "type": "Feature", "properties": { "name": "Nekyomanteion", "id": 108 }, "geometry": { "type": "Point", "coordinates": [ 20.28, 39.74 ] } },
{ "type": "Feature", "properties": { "name": "Southern Italy", "id": 109 }, "geometry": { "type": "Point", "coordinates": [ 20.29, 39.74 ] } },
{ "type": "Feature", "properties": { "name": "Macedonia", "id": 110 }, "geometry": { "type": "Point", "coordinates": [ 20.3, 39.74 ] } },
{ "type": "Feature", "properties": { "name": "Elina", "id": 111 }, "geometry": { "type": "Point", "coordinates": [ 20.1, 39.75 ] } },
{ "type": "Feature", "properties": { "name": "Elea", "id": 112 }, "geometry": { "type": "Point", "coordinates": [ 20.11, 39.75 ] } },
{ "type": "Feature", "properties": { "name": "Sicily", "id": 113 }, "geometry": { "type": "Point", "coordinates": [ 20.12, 39.75 ] } },
{ "type": "Feature", "properties": { "name": "Herakleia Pontike", "id": 114 }, "geometry": { "type": "Point", "coordinates": [ 20.13, 39.75 ] } },
{ "type": "Feature", "properties": { "name": "Lacus Avernus", "id": 115 }, "geometry": { "type": "Point", "coordinates": [ 20.14, 39.75 ] } },
{ "type": "Feature", "properties": { "name": "Latium", "id": 116 }, "geometry": { "type": "Point", "coordinates": [ 20.15, 39.75 ] } },
{ "type": "Feature", "properties": { "name": "Lygia", "altLabel": "Torone", "id": 117 }, "geometry": { "type": "Point", "coordinates": [ 20.17482432866462, 39.515321817211166 ] } },
{ "type": "Feature", "properties": { "name": "Molossia", "id": 118 }, "geometry": { "type": "Point", "coordinates": [ 20.17, 39.75 ] } },
{ "type": "Feature", "properties": { "name": "Piskovë", "id": 119 }, "geometry": { "type": "Point", "coordinates": [ 20.18, 39.75 ] } },
{ "type": "Feature", "properties": { "name": "Radotovi", "id": 120 }, "geometry": { "type": "Point", "coordinates": [ 20.19, 39.75 ] } },
{ "type": "Feature", "properties": { "name": "Mastilitsa", "id": 121 }, "geometry": { "type": "Point", "coordinates": [ 20.205391, 39.594043 ] } },
{ "type": "Feature", "properties": { "name": "Duka", "id": 122 }, "geometry": { "type": "Point", "coordinates": [ 20.21, 39.75 ] } },
{ "type": "Feature", "properties": { "name": "Margëlliç", "id": 123 }, "geometry": { "type": "Point", "coordinates": [ 20.22, 39.75 ] } },
{ "type": "Feature", "properties": { "name": "Tren", "id": 124 }, "geometry": { "type": "Point", "coordinates": [ 20.23, 39.75 ] } },
{ "type": "Feature", "properties": { "name": "Mursi", "id": 125 }, "geometry": { "type": "Point", "coordinates": [ 20.24, 39.75 ] } },
{ "type": "Feature", "properties": { "name": "Konispoli", "id": 126 }, "geometry": { "type": "Point", "coordinates": [ 20.182886544951376, 39.659114078009821 ] } },
{ "type": "Feature", "properties": { "name": "Giourganista", "id": 127 }, "geometry": { "type": "Point", "coordinates": [ 20.26, 39.75 ] } },
{ "type": "Feature", "properties": { "name": "Kosinë", "id": 128 }, "geometry": { "type": "Point", "coordinates": [ 20.28, 39.75 ] } },
{ "type": "Feature", "properties": { "name": "Çuka e Sarandës", "id": 129 }, "geometry": { "type": "Point", "coordinates": [ 20.29, 39.75 ] } },
{ "type": "Feature", "properties": { "name": "Këlcyrë", "id": 130 }, "geometry": { "type": "Point", "coordinates": [ 20.3, 39.75 ] } },
{ "type": "Feature", "properties": { "name": "Corcyra", "id": 131 }, "geometry": { "type": "Point", "coordinates": [ 19.92037290329251, 39.624031694238717 ] } },
{ "type": "Feature", "properties": { "name": "Kestrion - lower Acheron", "id": 132 }, "geometry": { "type": "Point", "coordinates": [ 20.1, 39.76 ] } },
{ "type": "Feature", "properties": { "name": "Oricos", "id": 133 }, "geometry": { "type": "Point", "coordinates": [ 20.13, 39.76 ] } },
{ "type": "Feature", "properties": { "name": "Riziani", "id": 134 }, "geometry": { "type": "Point", "coordinates": [ 20.14, 39.76 ] } },
{ "type": "Feature", "properties": { "name": "Vaxia", "id": 135 }, "geometry": { "type": "Point", "coordinates": [ 20.15, 39.76 ] } },
{ "type": "Feature", "properties": { "name": "Rhizon", "id": 136 }, "geometry": { "type": "Point", "coordinates": [ 20.16, 39.76 ] } },
{ "type": "Feature", "properties": { "name": "Magna Graecia", "id": 137 }, "geometry": { "type": "Point", "coordinates": [ 20.17, 39.76 ] } },
{ "type": "Feature", "properties": { "name": "Kammania", "id": 138 }, "geometry": { "type": "Point", "coordinates": [ 20.18, 39.76 ] } },
{ "type": "Feature", "properties": { "name": "Kokytos valley", "id": 139 }, "geometry": { "type": "Point", "coordinates": [ 20.19, 39.76 ] } },
{ "type": "Feature", "properties": { "name": "Castiglione di Paludi", "id": 140 }, "geometry": { "type": "Point", "coordinates": [ 20.2, 39.76 ] } },
{ "type": "Feature", "properties": { "name": "Epidamnos/Dyrrachium", "id": 141 }, "geometry": { "type": "Point", "coordinates": [ 20.21, 39.76 ] } },
{ "type": "Feature", "properties": { "name": "Rachi Platanias", "id": 142 }, "geometry": { "type": "Point", "coordinates": [ 20.22, 39.76 ] } },
{ "type": "Feature", "properties": { "name": "Krya", "id": 143 }, "geometry": { "type": "Point", "coordinates": [ 20.23, 39.76 ] } },
{ "type": "Feature", "properties": { "name": "Korça", "id": 144 }, "geometry": { "type": "Point", "coordinates": [ 20.24, 39.76 ] } },
{ "type": "Feature", "properties": { "name": "Pogradec", "id": 145 }, "geometry": { "type": "Point", "coordinates": [ 20.25, 39.76 ] } },
{ "type": "Feature", "properties": { "name": "Drinos valley", "id": 146 }, "geometry": { "type": "Point", "coordinates": [ 20.26, 39.76 ] } },
{ "type": "Feature", "properties": { "name": "Shkodra", "id": 147 }, "geometry": { "type": "Point", "coordinates": [ 20.27, 39.76 ] } },
{ "type": "Feature", "properties": { "name": "Kastritsa", "id": 148 }, "geometry": { "type": "Point", "coordinates": [ 20.28, 39.76 ] } },
{ "type": "Feature", "properties": { "name": "Prodromi", "id": 149 }, "geometry": { "type": "Point", "coordinates": [ 20.29, 39.76 ] } },
{ "type": "Feature", "properties": { "name": "Eretria", "id": 150 }, "geometry": { "type": "Point", "coordinates": [ 23.7876833, 38.3973384 ] } },
{ "type": "Feature", "properties": { "name": "Pavla valley", "id": 151 }, "geometry": { "type": "Point", "coordinates": [ 20.11, 39.77 ] } },
{ "type": "Feature", "properties": { "name": "Euboea", "id": 152 }, "geometry": { "type": "Point", "coordinates": [ 20.12, 39.77 ] } },
{ "type": "Feature", "properties": { "name": "Gliki", "id": 153 }, "geometry": { "type": "Point", "coordinates": [ 20.13, 39.77 ] } },
{ "type": "Feature", "properties": { "name": "Malçan", "id": 154 }, "geometry": { "type": "Point", "coordinates": [ 20.2200376, 39.8056914 ] } },
{ "type": "Feature", "properties": { "name": "Dourouti", "id": 155 }, "geometry": { "type": "Point", "coordinates": [ 20.15, 39.77 ] } },
{ "type": "Feature", "properties": { "name": "Diaporit", "id": 156 }, "geometry": { "type": "Point", "coordinates": [ 20.0505729, 39.760344 ] } },
{ "type": "Feature", "properties": { "name": "Kato Meropi", "id": 157 }, "geometry": { "type": "Point", "coordinates": [ 20.17, 39.77 ] } },
{ "type": "Feature", "properties": { "name": "Klos", "id": 158 }, "geometry": { "type": "Point", "coordinates": [ 20.051371, 41.4847142 ] } },
{ "type": "Feature", "properties": { "name": "Pazhok", "id": 159 }, "geometry": { "type": "Point", "coordinates": [ 20.19, 39.77 ] } },
{ "type": "Feature", "properties": { "name": "Vagenetia/Vayenetya", "id": 160 }, "geometry": { "type": "Point", "coordinates": [ 20.2, 39.77 ] } },
{ "type": "Feature", "properties": { "name": "Çiflik", "id": 161 }, "geometry": { "type": "Point", "coordinates": [ 20.1055928, 39.68946 ] } },
{ "type": "Feature", "properties": { "name": "Palatine hill", "id": 162 }, "geometry": { "type": "Point", "coordinates": [ 12.4850505, 41.8881896 ] } },
{ "type": "Feature", "properties": { "name": "Klisoura", "id": 163 }, "geometry": { "type": "Point", "coordinates": [ 20.23, 39.77 ] } },
{ "type": "Feature", "properties": { "name": "Rhodes", "id": 164 }, "geometry": { "type": "Point", "coordinates": [ 20.24, 39.77 ] } },
{ "type": "Feature", "properties": { "name": "Orraon", "id": 165 }, "geometry": { "type": "Point", "coordinates": [ 20.92483, 39.2716648 ] } },
{ "type": "Feature", "properties": { "name": "Photike", "id": 166 }, "geometry": { "type": "Point", "coordinates": [ 20.26, 39.77 ] } },
{ "type": "Feature", "properties": { "name": "Dymokastro", "id": 167 }, "geometry": { "type": "Point", "coordinates": [ 20.27, 39.77 ] } },
{ "type": "Feature", "properties": { "name": "Nicopolis", "altLabel": "Nikopolis, Νικόπολις", "id": 168 }, "geometry": { "type": "Point", "coordinates": [ 20.7183258, 38.9985807 ] } },
{ "type": "Feature", "properties": { "name": "Ioannina basin", "id": 169 }, "geometry": { "type": "Point", "coordinates": [ 20.29, 39.77 ] } },
{ "type": "Feature", "properties": { "name": "Kastritsa Ioanninon", "id": 170 }, "geometry": { "type": "Point", "coordinates": [ 20.3, 39.77 ] } },
{ "type": "Feature", "properties": { "name": "Treport", "id": 171 }, "geometry": { "type": "Point", "coordinates": [ 20.11, 39.78 ] } },
{ "type": "Feature", "properties": { "name": "Jorgucat", "id": 172 }, "geometry": { "type": "Point", "coordinates": [ 20.12, 39.78 ] } },
{ "type": "Feature", "properties": { "name": "Palambouti Neochoropoulou", "id": 173 }, "geometry": { "type": "Point", "coordinates": [ 20.13, 39.78 ] } },
{ "type": "Feature", "properties": { "name": "Dyrrachium", "altLabel": " Dyrrhachion, Epidamons, Epidamuns, Durrës, Durrazzo", "id": 174 }, "geometry": { "type": "Point", "coordinates": [ 19.425072, 41.3313284 ] } },
{ "type": "Feature", "properties": { "name": "Gardhiki", "id": 175 }, "geometry": { "type": "Point", "coordinates": [ 20.15, 39.78 ] } },
{ "type": "Feature", "properties": { "name": "Ieromnimi", "id": 176 }, "geometry": { "type": "Point", "coordinates": [ 20.16, 39.78 ] } },
{ "type": "Feature", "properties": { "name": "Dhrovjan", "id": 177 }, "geometry": { "type": "Point", "coordinates": [ 20.17, 39.78 ] } },
{ "type": "Feature", "properties": { "name": "Ksatritsa cave", "id": 178 }, "geometry": { "type": "Point", "coordinates": [ 20.18, 39.78 ] } },
{ "type": "Feature", "properties": { "name": "Epirus", "id": 179 }, "geometry": { "type": "Point", "coordinates": [ 20.19, 39.78 ] } },
{ "type": "Feature", "properties": { "name": "Ioannina", "id": 180 }, "geometry": { "type": "Point", "coordinates": [ 20.8265445, 39.6635269 ] } },
{ "type": "Feature", "properties": { "name": "Dodona", "id": 181 }, "geometry": { "type": "Point", "coordinates": [ 20.7876829, 39.5466588 ] } },
{ "type": "Feature", "properties": { "name": "Himara", "id": 182 }, "geometry": { "type": "Point", "coordinates": [ 19.732282, 40.0993186 ] } },
{ "type": "Feature", "properties": { "name": "Makrino", "id": 183 }, "geometry": { "type": "Point", "coordinates": [ 20.23, 39.78 ] } },
{ "type": "Feature", "properties": { "name": "Chrysavgi (upper Vouvos)", "id": 184 }, "geometry": { "type": "Point", "coordinates": [ 20.24, 39.78 ] } },
{ "type": "Feature", "properties": { "name": "Komani", "id": 185 }, "geometry": { "type": "Point", "coordinates": [ 19.8254441, 42.0908855 ] } },
{ "type": "Feature", "properties": { "name": "Campania", "id": 186 }, "geometry": { "type": "Point", "coordinates": [ 20.26, 39.78 ] } },
{ "type": "Feature", "properties": { "name": "Kyra Panagia", "id": 187 }, "geometry": { "type": "Point", "coordinates": [ 20.27, 39.78 ] } },
{ "type": "Feature", "properties": { "name": "Gitana", "id": 188 }, "geometry": { "type": "Point", "coordinates": [ 20.28, 39.78 ] } },
{ "type": "Feature", "properties": { "name": "Rodotopi", "id": 189 }, "geometry": { "type": "Point", "coordinates": [ 20.29, 39.78 ] } },
{ "type": "Feature", "properties": { "name": "Greece", "id": 190 }, "geometry": { "type": "Point", "coordinates": [ 20.3, 39.78 ] } },
{ "type": "Feature", "properties": { "name": "Drivastum/Drisht", "id": 191 }, "geometry": { "type": "Point", "coordinates": [ 20.1, 39.79 ] } },
{ "type": "Feature", "properties": { "name": "Megara Hyblaia", "id": 192 }, "geometry": { "type": "Point", "coordinates": [ 15.180616, 37.2046423 ] } },
{ "type": "Feature", "properties": { "name": "Lodhar", "id": 193 }, "geometry": { "type": "Point", "coordinates": [ 20.12, 39.79 ] } },
{ "type": "Feature", "properties": { "name": "Haliqe", "id": 194 }, "geometry": { "type": "Point", "coordinates": [ 20.13, 39.79 ] } },
{ "type": "Feature", "properties": { "name": "Shkalla e Pirros", "id": 195 }, "geometry": { "type": "Point", "coordinates": [ 20.14, 39.79 ] } },
{ "type": "Feature", "properties": { "name": "Gropa e Vulës", "id": 196 }, "geometry": { "type": "Point", "coordinates": [ 20.15, 39.79 ] } },
{ "type": "Feature", "properties": { "name": "Crete", "id": 197 }, "geometry": { "type": "Point", "coordinates": [ 24.8269557, 35.181334 ] } },
{ "type": "Feature", "properties": { "name": "Konispol cave", "id": 198 }, "geometry": { "type": "Point", "coordinates": [ 20.17, 39.79 ] } },
{ "type": "Feature", "properties": { "name": "Stisma", "id": 199 }, "geometry": { "type": "Point", "coordinates": [ 20.18, 39.79 ] } },
{ "type": "Feature", "properties": { "name": "Rrashku", "id": 200 }, "geometry": { "type": "Point", "coordinates": [ 20.19, 39.79 ] } },
{ "type": "Feature", "properties": { "name": "Vilës (Shalës)", "id": 201 }, "geometry": { "type": "Point", "coordinates": [ 20.2, 39.79 ] } },
{ "type": "Feature", "properties": { "name": "Vastrua", "id": 202 }, "geometry": { "type": "Point", "coordinates": [ 20.21, 39.79 ] } },
{ "type": "Feature", "properties": { "name": "Grika", "id": 203 }, "geometry": { "type": "Point", "coordinates": [ 20.22, 39.79 ] } },
{ "type": "Feature", "properties": { "name": "Samnium", "id": 204 }, "geometry": { "type": "Point", "coordinates": [ 20.23, 39.79 ] } },
{ "type": "Feature", "properties": { "name": "Dishat", "id": 205 }, "geometry": { "type": "Point", "coordinates": [ 20.24, 39.79 ] } },
{ "type": "Feature", "properties": { "name": "Himera", "id": 206 }, "geometry": { "type": "Point", "coordinates": [ 20.25, 39.79 ] } },
{ "type": "Feature", "properties": { "name": "Lëmi i ri", "id": 207 }, "geometry": { "type": "Point", "coordinates": [ 20.26, 39.79 ] } }
]
}
