{
"type": "FeatureCollection",
"name": "map",
"features": [
{ "type": "Feature", "properties": { "name": "Butrint", "altLabel": "Butrinti, Butrinto, Βουθρωτός, Bouthrotos, Bouthrotós, Buthrotum, Vuthroto" }, "geometry": { "type": "Point", "coordinates": [ 20.021199991303941, 39.745799250980319 ] } },
{ "type": "Feature", "id": 2, "properties": { "name": "Çuka e Ajtoit", "altLabel": "Cestria, Monte Aetòs, Monte Aetos, Cestrine" }, "geometry": { "type": "Point", "coordinates": [ 20.12361921335895, 39.681466609028035 ] } },
{ "type": "Feature", "properties": { "name": "Phoinike", "altLabel": "Foinike,  Fenice,  Phoenice,  Finiq, Finiqi" }, "geometry": { "type": "Point", "coordinates": [ 20.05848758388035, 39.913126796055622 ] } },
{ "type": "Feature", "properties": { "name": "Malathrea", "altLabel": "Malathre, Amaltheion" }, "geometry": { "type": "Point", "coordinates": [ 20.10500114635521, 39.698738934154768 ] } },
{ "type": "Feature", "properties": { "name": "Saranda", "altLabel": "Onchesmos, Anchiasmos, Ankiasmi, Onhesmi, Santi Quaranta, Porto Edda" }, "geometry": { "type": "Point", "coordinates": [ 20.007668385144491, 39.875003963760321 ] } },
{ "type": "Feature", "properties": { "name": "Grammata", "altLabel": "Gramata" }, "geometry": { "type": "Point", "coordinates": [ 20.101685, 39.710401 ] } },
{ "type": "Feature", "properties": { "name": "Grammeno" }, "geometry": { "type": "Point", "coordinates": [ 20.101685, 39.710401 ] } },
{ "type": "Feature", "properties": { "name": "Acheron" }, "geometry": { "type": "Point", "coordinates": [ 20.1, 39.7 ] } },
{ "type": "Feature", "properties": { "name": "Actium" }, "geometry": { "type": "Point", "coordinates": [ 20.11, 39.7 ] } },
{ "type": "Feature", "properties": { "name": "Adriatic Sea" }, "geometry": { "type": "Point", "coordinates": [ 20.12, 39.7 ] } },
{ "type": "Feature", "properties": { "name": "Aegean Sea" }, "geometry": { "type": "Point", "coordinates": [ 20.13, 39.7 ] } },
{ "type": "Feature", "properties": { "name": "Agia Marina" }, "geometry": { "type": "Point", "coordinates": [ 20.14, 39.7 ] } },
{ "type": "Feature", "properties": { "name": "Agios Donatos" }, "geometry": { "type": "Point", "coordinates": [ 20.15, 39.7 ] } },
{ "type": "Feature", "properties": { "name": "Albania" }, "geometry": { "type": "Point", "coordinates": [ 20.16, 39.7 ] } },
{ "type": "Feature", "properties": { "name": "Amantia" }, "geometry": { "type": "Point", "coordinates": [ 20.17, 39.7 ] } },
{ "type": "Feature", "properties": { "name": "Ambracia" }, "geometry": { "type": "Point", "coordinates": [ 20.18, 39.7 ] } },
{ "type": "Feature", "properties": { "name": "Ammotopos" }, "geometry": { "type": "Point", "coordinates": [ 20.19, 39.7 ] } },
{ "type": "Feature", "properties": { "name": "Ano Parakalamos" }, "geometry": { "type": "Point", "coordinates": [ 20.2, 39.7 ] } },
{ "type": "Feature", "properties": { "name": "Anthochori" }, "geometry": { "type": "Point", "coordinates": [ 20.21, 39.7 ] } },
{ "type": "Feature", "properties": { "name": "Antigonea" }, "geometry": { "type": "Point", "coordinates": [ 20.22, 39.7 ] } },
{ "type": "Feature", "properties": { "name": "Apollonia" }, "geometry": { "type": "Point", "coordinates": [ 20.23, 39.7 ] } },
{ "type": "Feature", "properties": { "name": "Athens" }, "geometry": { "type": "Point", "coordinates": [ 20.24, 39.7 ] } },
{ "type": "Feature", "properties": { "name": "Attica" }, "geometry": { "type": "Point", "coordinates": [ 20.25, 39.7 ] } },
{ "type": "Feature", "properties": { "name": "Aulon" }, "geometry": { "type": "Point", "coordinates": [ 20.26, 39.7 ] } },
{ "type": "Feature", "properties": { "name": "Bajkaj" }, "geometry": { "type": "Point", "coordinates": [ 20.27, 39.7 ] } },
{ "type": "Feature", "properties": { "name": "Ballëz" }, "geometry": { "type": "Point", "coordinates": [ 20.28, 39.7 ] } },
{ "type": "Feature", "properties": { "name": "Barç" }, "geometry": { "type": "Point", "coordinates": [ 20.29, 39.7 ] } },
{ "type": "Feature", "properties": { "name": "Belibardha" }, "geometry": { "type": "Point", "coordinates": [ 20.3, 39.7 ] } },
{ "type": "Feature", "properties": { "name": "Belsh" }, "geometry": { "type": "Point", "coordinates": [ 20.11, 39.71 ] } },
{ "type": "Feature", "properties": { "name": "Berat" }, "geometry": { "type": "Point", "coordinates": [ 20.12, 39.71 ] } },
{ "type": "Feature", "properties": { "name": "Boeotia" }, "geometry": { "type": "Point", "coordinates": [ 20.13, 39.71 ] } },
{ "type": "Feature", "properties": { "name": "Borsh" }, "geometry": { "type": "Point", "coordinates": [ 20.14, 39.71 ] } },
{ "type": "Feature", "properties": { "name": "Bregu i Kullës" }, "geometry": { "type": "Point", "coordinates": [ 20.15, 39.71 ] } },
{ "type": "Feature", "properties": { "name": "Bregu i Sterrës" }, "geometry": { "type": "Point", "coordinates": [ 20.16, 39.71 ] } },
{ "type": "Feature", "properties": { "name": "Brinja e Shelgjit" }, "geometry": { "type": "Point", "coordinates": [ 20.17, 39.71 ] } },
{ "type": "Feature", "properties": { "name": "Bushat" }, "geometry": { "type": "Point", "coordinates": [ 20.18, 39.71 ] } },
{ "type": "Feature", "properties": { "name": "Byllis" }, "geometry": { "type": "Point", "coordinates": [ 20.2, 39.71 ] } },
{ "type": "Feature", "properties": { "name": "Dimal" }, "geometry": { "type": "Point", "coordinates": [ 20.21, 39.71 ] } },
{ "type": "Feature", "properties": { "name": "Votonosi" }, "geometry": { "type": "Point", "coordinates": [ 20.22, 39.71 ] } },
{ "type": "Feature", "properties": { "name": "Peloponnese" }, "geometry": { "type": "Point", "coordinates": [ 20.23, 39.71 ] } },
{ "type": "Feature", "properties": { "name": "Peshkëpi e Sipërme" }, "geometry": { "type": "Point", "coordinates": [ 20.24, 39.71 ] } },
{ "type": "Feature", "properties": { "name": "Sarda" }, "geometry": { "type": "Point", "coordinates": [ 20.25, 39.71 ] } },
{ "type": "Feature", "properties": { "name": "Labova e Kryqit" }, "geometry": { "type": "Point", "coordinates": [ 20.26, 39.71 ] } },
{ "type": "Feature", "properties": { "name": "Dema (Attica)" }, "geometry": { "type": "Point", "coordinates": [ 20.27, 39.71 ] } },
{ "type": "Feature", "properties": { "name": "Corinth" }, "geometry": { "type": "Point", "coordinates": [ 20.28, 39.71 ] } },
{ "type": "Feature", "properties": { "name": "Siphnos" }, "geometry": { "type": "Point", "coordinates": [ 20.29, 39.71 ] } },
{ "type": "Feature", "properties": { "name": "Leprovouni" }, "geometry": { "type": "Point", "coordinates": [ 20.3, 39.71 ] } },
{ "type": "Feature", "properties": { "name": "Koudounotrypa" }, "geometry": { "type": "Point", "coordinates": [ 20.1, 39.72 ] } },
{ "type": "Feature", "properties": { "name": "Pesta" }, "geometry": { "type": "Point", "coordinates": [ 20.11, 39.72 ] } },
{ "type": "Feature", "properties": { "name": "Matohasanaj" }, "geometry": { "type": "Point", "coordinates": [ 20.12, 39.72 ] } },
{ "type": "Feature", "properties": { "name": "Thessaly" }, "geometry": { "type": "Point", "coordinates": [ 20.13, 39.72 ] } },
{ "type": "Feature", "properties": { "name": "Castro" }, "geometry": { "type": "Point", "coordinates": [ 20.14, 39.72 ] } },
{ "type": "Feature", "properties": { "name": "Lofkënd" }, "geometry": { "type": "Point", "coordinates": [ 20.15, 39.72 ] } },
{ "type": "Feature", "properties": { "name": "Chaonia" }, "geometry": { "type": "Point", "coordinates": [ 20.16, 39.72 ] } },
{ "type": "Feature", "properties": { "name": "Eleutherai" }, "geometry": { "type": "Point", "coordinates": [ 20.17, 39.72 ] } },
{ "type": "Feature", "properties": { "name": "Mousiotitsa" }, "geometry": { "type": "Point", "coordinates": [ 20.18, 39.72 ] } },
{ "type": "Feature", "properties": { "name": "Kastri Episkopikou" }, "geometry": { "type": "Point", "coordinates": [ 20.19, 39.72 ] } },
{ "type": "Feature", "properties": { "name": "Vrina" }, "geometry": { "type": "Point", "coordinates": [ 20.2, 39.72 ] } },
{ "type": "Feature", "properties": { "name": "Sevasto" }, "geometry": { "type": "Point", "coordinates": [ 20.21, 39.72 ] } },
{ "type": "Feature", "properties": { "name": "Shushica" }, "geometry": { "type": "Point", "coordinates": [ 20.22, 39.72 ] } },
{ "type": "Feature", "properties": { "name": "Rome" }, "geometry": { "type": "Point", "coordinates": [ 20.23, 39.72 ] } },
{ "type": "Feature", "properties": { "name": "Lezha" }, "geometry": { "type": "Point", "coordinates": [ 20.24, 39.72 ] } },
{ "type": "Feature", "properties": { "name": "Ktismata" }, "geometry": { "type": "Point", "coordinates": [ 20.25, 39.72 ] } },
{ "type": "Feature", "properties": { "name": "Ephyra" }, "geometry": { "type": "Point", "coordinates": [ 20.26, 39.72 ] } },
{ "type": "Feature", "properties": { "name": "Taras" }, "geometry": { "type": "Point", "coordinates": [ 20.27, 39.72 ] } },
{ "type": "Feature", "properties": { "name": "Sovjan" }, "geometry": { "type": "Point", "coordinates": [ 20.28, 39.72 ] } },
{ "type": "Feature", "properties": { "name": "Mavrovë (Olympa)" }, "geometry": { "type": "Point", "coordinates": [ 20.29, 39.72 ] } },
{ "type": "Feature", "properties": { "name": "Kalivo" }, "geometry": { "type": "Point", "coordinates": [ 20.3, 39.72 ] } },
{ "type": "Feature", "properties": { "name": "Metoqi" }, "geometry": { "type": "Point", "coordinates": [ 20.1, 39.73 ] } },
{ "type": "Feature", "properties": { "name": "Doliani" }, "geometry": { "type": "Point", "coordinates": [ 20.11, 39.73 ] } },
{ "type": "Feature", "properties": { "name": "Nemea" }, "geometry": { "type": "Point", "coordinates": [ 20.12, 39.73 ] } },
{ "type": "Feature", "properties": { "name": "Delos" }, "geometry": { "type": "Point", "coordinates": [ 20.13, 39.73 ] } },
{ "type": "Feature", "properties": { "name": "Zgërdhesh" }, "geometry": { "type": "Point", "coordinates": [ 20.14, 39.73 ] } },
{ "type": "Feature", "properties": { "name": "Illyria" }, "geometry": { "type": "Point", "coordinates": [ 20.15, 39.73 ] } },
{ "type": "Feature", "properties": { "name": "Psina" }, "geometry": { "type": "Point", "coordinates": [ 20.16, 39.73 ] } },
{ "type": "Feature", "properties": { "name": "Maliq" }, "geometry": { "type": "Point", "coordinates": [ 20.17, 39.73 ] } },
{ "type": "Feature", "properties": { "name": "Matomara" }, "geometry": { "type": "Point", "coordinates": [ 20.18, 39.73 ] } },
{ "type": "Feature", "properties": { "name": "Paramythia" }, "geometry": { "type": "Point", "coordinates": [ 20.19, 39.73 ] } },
{ "type": "Feature", "properties": { "name": "Vagalati" }, "geometry": { "type": "Point", "coordinates": [ 20.2, 39.73 ] } },
{ "type": "Feature", "properties": { "name": "Megalo Gardiki" }, "geometry": { "type": "Point", "coordinates": [ 20.21, 39.73 ] } },
{ "type": "Feature", "properties": { "name": "Vitsa" }, "geometry": { "type": "Point", "coordinates": [ 20.22, 39.73 ] } },
{ "type": "Feature", "properties": { "name": "Perondi" }, "geometry": { "type": "Point", "coordinates": [ 20.23, 39.73 ] } },
{ "type": "Feature", "properties": { "name": "Dobra" }, "geometry": { "type": "Point", "coordinates": [ 20.24, 39.73 ] } },
{ "type": "Feature", "properties": { "name": "Marmara Zervochori" }, "geometry": { "type": "Point", "coordinates": [ 20.25, 39.73 ] } },
{ "type": "Feature", "properties": { "name": "Monte Turcisi" }, "geometry": { "type": "Point", "coordinates": [ 20.26, 39.73 ] } },
{ "type": "Feature", "properties": { "name": "Kanina" }, "geometry": { "type": "Point", "coordinates": [ 20.27, 39.73 ] } },
{ "type": "Feature", "properties": { "name": "Greece > Aegean" }, "geometry": { "type": "Point", "coordinates": [ 20.28, 39.73 ] } },
{ "type": "Feature", "properties": { "name": "Sykion" }, "geometry": { "type": "Point", "coordinates": [ 20.29, 39.73 ] } },
{ "type": "Feature", "properties": { "name": "Karaburun" }, "geometry": { "type": "Point", "coordinates": [ 20.3, 39.73 ] } },
{ "type": "Feature", "properties": { "name": "Michalitsi (Aktion)" }, "geometry": { "type": "Point", "coordinates": [ 20.1, 39.74 ] } },
{ "type": "Feature", "properties": { "name": "Samos" }, "geometry": { "type": "Point", "coordinates": [ 20.11, 39.74 ] } },
{ "type": "Feature", "properties": { "name": "Mesopotam" }, "geometry": { "type": "Point", "coordinates": [ 20.12, 39.74 ] } },
{ "type": "Feature", "properties": { "name": "Passaron" }, "geometry": { "type": "Point", "coordinates": [ 20.13, 39.74 ] } },
{ "type": "Feature", "properties": { "name": "Pyrgos Ragiou" }, "geometry": { "type": "Point", "coordinates": [ 20.14, 39.74 ] } },
{ "type": "Feature", "properties": { "name": "Russia" }, "geometry": { "type": "Point", "coordinates": [ 20.15, 39.74 ] } },
{ "type": "Feature", "properties": { "name": "Ripës" }, "geometry": { "type": "Point", "coordinates": [ 20.16, 39.74 ] } },
{ "type": "Feature", "properties": { "name": "Thesprotia" }, "geometry": { "type": "Point", "coordinates": [ 20.17, 39.74 ] } },
{ "type": "Feature", "properties": { "name": "Nymphaion" }, "geometry": { "type": "Point", "coordinates": [ 20.18, 39.74 ] } },
{ "type": "Feature", "properties": { "name": "Episkopi Servianon" }, "geometry": { "type": "Point", "coordinates": [ 20.19, 39.74 ] } },
{ "type": "Feature", "properties": { "name": "Syri i kaltër" }, "geometry": { "type": "Point", "coordinates": [ 20.2, 39.74 ] } },
{ "type": "Feature", "properties": { "name": "Vlora" }, "geometry": { "type": "Point", "coordinates": [ 20.21, 39.74 ] } },
{ "type": "Feature", "properties": { "name": "Veio" }, "geometry": { "type": "Point", "coordinates": [ 20.22, 39.74 ] } },
{ "type": "Feature", "properties": { "name": "Hadrianopolis" }, "geometry": { "type": "Point", "coordinates": [ 20.23, 39.74 ] } },
{ "type": "Feature", "properties": { "name": "Civita di Tricarico" }, "geometry": { "type": "Point", "coordinates": [ 20.24, 39.74 ] } },
{ "type": "Feature", "properties": { "name": "Kassope" }, "geometry": { "type": "Point", "coordinates": [ 20.25, 39.74 ] } },
{ "type": "Feature", "properties": { "name": "Dema (Chaonia)" }, "geometry": { "type": "Point", "coordinates": [ 20.26, 39.74 ] } },
{ "type": "Feature", "properties": { "name": "Kalyvoules Perivleptou" }, "geometry": { "type": "Point", "coordinates": [ 20.27, 39.74 ] } },
{ "type": "Feature", "properties": { "name": "Nekyomanteion" }, "geometry": { "type": "Point", "coordinates": [ 20.28, 39.74 ] } },
{ "type": "Feature", "properties": { "name": "Southern Italy" }, "geometry": { "type": "Point", "coordinates": [ 20.29, 39.74 ] } },
{ "type": "Feature", "properties": { "name": "Macedonia" }, "geometry": { "type": "Point", "coordinates": [ 20.3, 39.74 ] } },
{ "type": "Feature", "properties": { "name": "Elina" }, "geometry": { "type": "Point", "coordinates": [ 20.1, 39.75 ] } },
{ "type": "Feature", "properties": { "name": "Elea" }, "geometry": { "type": "Point", "coordinates": [ 20.11, 39.75 ] } },
{ "type": "Feature", "properties": { "name": "Sicily" }, "geometry": { "type": "Point", "coordinates": [ 20.12, 39.75 ] } },
{ "type": "Feature", "properties": { "name": "Herakleia Pontike" }, "geometry": { "type": "Point", "coordinates": [ 20.13, 39.75 ] } },
{ "type": "Feature", "properties": { "name": "Lacus Avernus" }, "geometry": { "type": "Point", "coordinates": [ 20.14, 39.75 ] } },
{ "type": "Feature", "properties": { "name": "Latium" }, "geometry": { "type": "Point", "coordinates": [ 20.15, 39.75 ] } },
{ "type": "Feature", "properties": { "name": "Lygia (Torone)" }, "geometry": { "type": "Point", "coordinates": [ 20.16, 39.75 ] } },
{ "type": "Feature", "properties": { "name": "Molossia" }, "geometry": { "type": "Point", "coordinates": [ 20.17, 39.75 ] } },
{ "type": "Feature", "properties": { "name": "Piskovë" }, "geometry": { "type": "Point", "coordinates": [ 20.18, 39.75 ] } },
{ "type": "Feature", "properties": { "name": "Radotovi" }, "geometry": { "type": "Point", "coordinates": [ 20.19, 39.75 ] } },
{ "type": "Feature", "properties": { "name": "Mastilitsa" }, "geometry": { "type": "Point", "coordinates": [ 20.2, 39.75 ] } },
{ "type": "Feature", "properties": { "name": "Duka" }, "geometry": { "type": "Point", "coordinates": [ 20.21, 39.75 ] } },
{ "type": "Feature", "properties": { "name": "Margëlliç" }, "geometry": { "type": "Point", "coordinates": [ 20.22, 39.75 ] } },
{ "type": "Feature", "properties": { "name": "Tren" }, "geometry": { "type": "Point", "coordinates": [ 20.23, 39.75 ] } },
{ "type": "Feature", "properties": { "name": "Mursi" }, "geometry": { "type": "Point", "coordinates": [ 20.24, 39.75 ] } },
{ "type": "Feature", "properties": { "name": "Konispoli" }, "geometry": { "type": "Point", "coordinates": [ 20.182886544951376, 39.659114078009821 ] } },
{ "type": "Feature", "properties": { "name": "Giourganista" }, "geometry": { "type": "Point", "coordinates": [ 20.26, 39.75 ] } },
{ "type": "Feature", "properties": { "name": "Kosinë" }, "geometry": { "type": "Point", "coordinates": [ 20.28, 39.75 ] } },
{ "type": "Feature", "properties": { "name": "Çuka e Sarandës" }, "geometry": { "type": "Point", "coordinates": [ 20.29, 39.75 ] } },
{ "type": "Feature", "properties": { "name": "Këlcyrë" }, "geometry": { "type": "Point", "coordinates": [ 20.3, 39.75 ] } },
{ "type": "Feature", "properties": { "name": "Corcyra" }, "geometry": { "type": "Point", "coordinates": [ 19.92037290329251, 39.624031694238717 ] } },
{ "type": "Feature", "properties": { "name": "Kestrion - lower Acheron" }, "geometry": { "type": "Point", "coordinates": [ 20.1, 39.76 ] } },
{ "type": "Feature", "properties": { "name": "Oricos" }, "geometry": { "type": "Point", "coordinates": [ 20.13, 39.76 ] } },
{ "type": "Feature", "properties": { "name": "Riziani" }, "geometry": { "type": "Point", "coordinates": [ 20.14, 39.76 ] } },
{ "type": "Feature", "properties": { "name": "Vaxia" }, "geometry": { "type": "Point", "coordinates": [ 20.15, 39.76 ] } },
{ "type": "Feature", "properties": { "name": "Rhizon" }, "geometry": { "type": "Point", "coordinates": [ 20.16, 39.76 ] } },
{ "type": "Feature", "properties": { "name": "Magna Graecia" }, "geometry": { "type": "Point", "coordinates": [ 20.17, 39.76 ] } },
{ "type": "Feature", "properties": { "name": "Kammania" }, "geometry": { "type": "Point", "coordinates": [ 20.18, 39.76 ] } },
{ "type": "Feature", "properties": { "name": "Kokytos valley" }, "geometry": { "type": "Point", "coordinates": [ 20.19, 39.76 ] } },
{ "type": "Feature", "properties": { "name": "Castiglione di Paludi" }, "geometry": { "type": "Point", "coordinates": [ 20.2, 39.76 ] } },
{ "type": "Feature", "properties": { "name": "Epidamnos/Dyrrachium" }, "geometry": { "type": "Point", "coordinates": [ 20.21, 39.76 ] } },
{ "type": "Feature", "properties": { "name": "Rachi Platanias" }, "geometry": { "type": "Point", "coordinates": [ 20.22, 39.76 ] } },
{ "type": "Feature", "properties": { "name": "Krya" }, "geometry": { "type": "Point", "coordinates": [ 20.23, 39.76 ] } },
{ "type": "Feature", "properties": { "name": "Korça" }, "geometry": { "type": "Point", "coordinates": [ 20.24, 39.76 ] } },
{ "type": "Feature", "properties": { "name": "Pogradec" }, "geometry": { "type": "Point", "coordinates": [ 20.25, 39.76 ] } },
{ "type": "Feature", "properties": { "name": "Drinos valley" }, "geometry": { "type": "Point", "coordinates": [ 20.26, 39.76 ] } },
{ "type": "Feature", "properties": { "name": "Shkodra" }, "geometry": { "type": "Point", "coordinates": [ 20.27, 39.76 ] } },
{ "type": "Feature", "properties": { "name": "Kastritsa" }, "geometry": { "type": "Point", "coordinates": [ 20.28, 39.76 ] } },
{ "type": "Feature", "properties": { "name": "Prodromi" }, "geometry": { "type": "Point", "coordinates": [ 20.29, 39.76 ] } },
{ "type": "Feature", "properties": { "name": "Eretria" }, "geometry": { "type": "Point", "coordinates": [ 20.3, 39.76 ] } },
{ "type": "Feature", "properties": { "name": "Pavla valley" }, "geometry": { "type": "Point", "coordinates": [ 20.11, 39.77 ] } },
{ "type": "Feature", "properties": { "name": "Euboea" }, "geometry": { "type": "Point", "coordinates": [ 20.12, 39.77 ] } },
{ "type": "Feature", "properties": { "name": "Gliki" }, "geometry": { "type": "Point", "coordinates": [ 20.13, 39.77 ] } },
{ "type": "Feature", "properties": { "name": "Malçan" }, "geometry": { "type": "Point", "coordinates": [ 20.14, 39.77 ] } },
{ "type": "Feature", "properties": { "name": "Dourouti" }, "geometry": { "type": "Point", "coordinates": [ 20.15, 39.77 ] } },
{ "type": "Feature", "properties": { "name": "Diaporit" }, "geometry": { "type": "Point", "coordinates": [ 20.16, 39.77 ] } },
{ "type": "Feature", "properties": { "name": "Kato Meropi" }, "geometry": { "type": "Point", "coordinates": [ 20.17, 39.77 ] } },
{ "type": "Feature", "properties": { "name": "Klos" }, "geometry": { "type": "Point", "coordinates": [ 20.18, 39.77 ] } },
{ "type": "Feature", "properties": { "name": "Pazhok" }, "geometry": { "type": "Point", "coordinates": [ 20.19, 39.77 ] } },
{ "type": "Feature", "properties": { "name": "Vagenetia/Vayenetya" }, "geometry": { "type": "Point", "coordinates": [ 20.2, 39.77 ] } },
{ "type": "Feature", "properties": { "name": "Çiflik" }, "geometry": { "type": "Point", "coordinates": [ 20.21, 39.77 ] } },
{ "type": "Feature", "properties": { "name": "Palatine hill" }, "geometry": { "type": "Point", "coordinates": [ 20.22, 39.77 ] } },
{ "type": "Feature", "properties": { "name": "Klisoura" }, "geometry": { "type": "Point", "coordinates": [ 20.23, 39.77 ] } },
{ "type": "Feature", "properties": { "name": "Rhodes" }, "geometry": { "type": "Point", "coordinates": [ 20.24, 39.77 ] } },
{ "type": "Feature", "properties": { "name": "Orraon" }, "geometry": { "type": "Point", "coordinates": [ 20.25, 39.77 ] } },
{ "type": "Feature", "properties": { "name": "Photike" }, "geometry": { "type": "Point", "coordinates": [ 20.26, 39.77 ] } },
{ "type": "Feature", "properties": { "name": "Dymokastro" }, "geometry": { "type": "Point", "coordinates": [ 20.27, 39.77 ] } },
{ "type": "Feature", "properties": { "name": "Nicopolis", "altLabel": "Nikopolis, Νικόπολις" }, "geometry": { "type": "Point", "coordinates": [ 20.28, 39.77 ] } },
{ "type": "Feature", "properties": { "name": "Ioannina basin" }, "geometry": { "type": "Point", "coordinates": [ 20.29, 39.77 ] } },
{ "type": "Feature", "properties": { "name": "Kastritsa Ioanninon" }, "geometry": { "type": "Point", "coordinates": [ 20.3, 39.77 ] } },
{ "type": "Feature", "properties": { "name": "Treport" }, "geometry": { "type": "Point", "coordinates": [ 20.11, 39.78 ] } },
{ "type": "Feature", "properties": { "name": "Jorgucat" }, "geometry": { "type": "Point", "coordinates": [ 20.12, 39.78 ] } },
{ "type": "Feature", "properties": { "name": "Palambouti Neochoropoulou" }, "geometry": { "type": "Point", "coordinates": [ 20.13, 39.78 ] } },
{ "type": "Feature", "properties": { "name": "Dyrrachium", "altLabel":" Dyrrhachion, Epidamons, Epidamuns, Durrës, Durrazzo" }, "geometry": { "type": "Point", "coordinates": [ 20.14, 39.78 ] } },
{ "type": "Feature", "properties": { "name": "Gardhiki" }, "geometry": { "type": "Point", "coordinates": [ 20.15, 39.78 ] } },
{ "type": "Feature", "properties": { "name": "Ieromnimi" }, "geometry": { "type": "Point", "coordinates": [ 20.16, 39.78 ] } },
{ "type": "Feature", "properties": { "name": "Dhrovjan" }, "geometry": { "type": "Point", "coordinates": [ 20.17, 39.78 ] } },
{ "type": "Feature", "properties": { "name": "Ksatritsa cave" }, "geometry": { "type": "Point", "coordinates": [ 20.18, 39.78 ] } },
{ "type": "Feature", "properties": { "name": "Epirus" }, "geometry": { "type": "Point", "coordinates": [ 20.19, 39.78 ] } },
{ "type": "Feature", "properties": { "name": "Ioannina" }, "geometry": { "type": "Point", "coordinates": [ 20.2, 39.78 ] } },
{ "type": "Feature", "properties": { "name": "Dodona" }, "geometry": { "type": "Point", "coordinates": [ 20.21, 39.78 ] } },
{ "type": "Feature", "properties": { "name": "Himara" }, "geometry": { "type": "Point", "coordinates": [ 20.22, 39.78 ] } },
{ "type": "Feature", "properties": { "name": "Makrino" }, "geometry": { "type": "Point", "coordinates": [ 20.23, 39.78 ] } },
{ "type": "Feature", "properties": { "name": "Chrysavgi (upper Vouvos)" }, "geometry": { "type": "Point", "coordinates": [ 20.24, 39.78 ] } },
{ "type": "Feature", "properties": { "name": "Komani" }, "geometry": { "type": "Point", "coordinates": [ 20.25, 39.78 ] } },
{ "type": "Feature", "properties": { "name": "Campania" }, "geometry": { "type": "Point", "coordinates": [ 20.26, 39.78 ] } },
{ "type": "Feature", "properties": { "name": "Kyra Panagia" }, "geometry": { "type": "Point", "coordinates": [ 20.27, 39.78 ] } },
{ "type": "Feature", "properties": { "name": "Gitana" }, "geometry": { "type": "Point", "coordinates": [ 20.28, 39.78 ] } },
{ "type": "Feature", "properties": { "name": "Rodotopi" }, "geometry": { "type": "Point", "coordinates": [ 20.29, 39.78 ] } },
{ "type": "Feature", "properties": { "name": "Greece" }, "geometry": { "type": "Point", "coordinates": [ 20.3, 39.78 ] } },
{ "type": "Feature", "properties": { "name": "Drivastum/Drisht" }, "geometry": { "type": "Point", "coordinates": [ 20.1, 39.79 ] } },
{ "type": "Feature", "properties": { "name": "Megara Hyblaia" }, "geometry": { "type": "Point", "coordinates": [ 20.11, 39.79 ] } },
{ "type": "Feature", "properties": { "name": "Lodhar" }, "geometry": { "type": "Point", "coordinates": [ 20.12, 39.79 ] } },
{ "type": "Feature", "properties": { "name": "Haliqe" }, "geometry": { "type": "Point", "coordinates": [ 20.13, 39.79 ] } },
{ "type": "Feature", "properties": { "name": "Shkalla e Pirros" }, "geometry": { "type": "Point", "coordinates": [ 20.14, 39.79 ] } },
{ "type": "Feature", "properties": { "name": "Gropa e Vulës" }, "geometry": { "type": "Point", "coordinates": [ 20.15, 39.79 ] } },
{ "type": "Feature", "properties": { "name": "Crete" }, "geometry": { "type": "Point", "coordinates": [ 20.16, 39.79 ] } },
{ "type": "Feature", "properties": { "name": "Konispol cave" }, "geometry": { "type": "Point", "coordinates": [ 20.17, 39.79 ] } },
{ "type": "Feature", "properties": { "name": "Stisma" }, "geometry": { "type": "Point", "coordinates": [ 20.18, 39.79 ] } },
{ "type": "Feature", "properties": { "name": "Rrashku" }, "geometry": { "type": "Point", "coordinates": [ 20.19, 39.79 ] } },
{ "type": "Feature", "properties": { "name": "Vilës (Shalës)" }, "geometry": { "type": "Point", "coordinates": [ 20.2, 39.79 ] } },
{ "type": "Feature", "properties": { "name": "Vastrua" }, "geometry": { "type": "Point", "coordinates": [ 20.21, 39.79 ] } },
{ "type": "Feature", "properties": { "name": "Grika" }, "geometry": { "type": "Point", "coordinates": [ 20.22, 39.79 ] } },
{ "type": "Feature", "properties": { "name": "Samnium" }, "geometry": { "type": "Point", "coordinates": [ 20.23, 39.79 ] } },
{ "type": "Feature", "properties": { "name": "Dishat" }, "geometry": { "type": "Point", "coordinates": [ 20.24, 39.79 ] } },
{ "type": "Feature", "properties": { "name": "Himera" }, "geometry": { "type": "Point", "coordinates": [ 20.25, 39.79 ] } },
{ "type": "Feature", "properties": { "name": "Lëmi i ri" }, "geometry": { "type": "Point", "coordinates": [ 20.26, 39.79 ] } }
]
}
